[
  {
    "id": "4",
    "name": "Krak\u00f3w - Aleja Krasi\u0144skiego",
    "lat": "50.05767800",
    "lon": "19.92618900"
  },
  {
    "id": "13",
    "name": "Krak\u00f3w - Kurdwan\u00f3w",
    "lat": "50.01057500",
    "lon": "19.94918900"
  },
  {
    "id": "5",
    "name": "Krak\u00f3w - Nowa Huta",
    "lat": "50.06930800",
    "lon": "20.05349200"
  },
  {
    "id": "6",
    "name": "Nowy S\u0105cz",
    "lat": "49.61928100",
    "lon": "20.71440300"
  },
  {
    "id": "8",
    "name": "Olkusz",
    "lat": "50.27756900",
    "lon": "19.56986900"
  },
  {
    "id": "3",
    "name": "Skawina",
    "lat": "49.97104700",
    "lon": "19.83042200"
  },
  {
    "id": "12",
    "name": "Szar\u00f3w",
    "lat": "50.00701400",
    "lon": "20.25847500"
  },
  {
    "id": "10",
    "name": "Szymbark",
    "lat": "49.63371400",
    "lon": "21.11683300"
  },
  {
    "id": "2",
    "name": "Tarn\u00f3w",
    "lat": "50.02016900",
    "lon": "21.00416700"
  },
  {
    "id": "9",
    "name": "Trzebinia",
    "lat": "50.15940600",
    "lon": "19.47746400"
  },
  {
    "id": "7",
    "name": "Zakopane",
    "lat": "49.29356400",
    "lon": "19.96008300"
  },
  {
    "id": "14",
    "name": "Bielsko-Bia\u0142a",
    "lat": "49.84931160",
    "lon": "20.25228730"
  },
  {
    "id": "15",
    "name": "Cieszyn",
    "lat": "49.73878280",
    "lon": "18.63839810"
  },
  {
    "id": "16",
    "name": "Cz\u0119stochowa - Armii Krajowej",
    "lat": "50.81755010",
    "lon": "19.11871480"
  },
  {
    "id": "17",
    "name": "Cz\u0119stochowa - Baczy\u0144skiego",
    "lat": "50.83517300",
    "lon": "19.12726890"
  },
  {
    "id": "18",
    "name": "D\u0105browa G\u00f3rnicza",
    "lat": "50.32919830",
    "lon": "19.23164310"
  },
  {
    "id": "19",
    "name": "Gliwice",
    "lat": "50.27909860",
    "lon": "18.65525630"
  },
  {
    "id": "20",
    "name": "God\u00f3w",
    "lat": "49.92474480",
    "lon": "18.47304180"
  },
  {
    "id": "21",
    "name": "Katowice, autostrada A4",
    "lat": "50.24532450",
    "lon": "19.03317080"
  },
  {
    "id": "22",
    "name": "Katowice - Kossutha",
    "lat": "50.26533500",
    "lon": "18.97563170"
  },
  {
    "id": "23",
    "name": "Rybnik",
    "lat": "50.11238100",
    "lon": "18.51664990"
  },
  {
    "id": "24",
    "name": "Sosnowiec",
    "lat": "50.28667100",
    "lon": "19.18480180"
  },
  {
    "id": "25",
    "name": "Tychy",
    "lat": "50.10063350",
    "lon": "18.99154330"
  },
  {
    "id": "26",
    "name": "Ustro\u0144",
    "lat": "49.72127670",
    "lon": "18.82495370"
  },
  {
    "id": "27",
    "name": "Wodzis\u0142aw",
    "lat": "50.00748600",
    "lon": "18.45648700"
  },
  {
    "id": "28",
    "name": "Zabrze",
    "lat": "50.00748600",
    "lon": "18.45648700"
  },
  {
    "id": "29",
    "name": "Z\u0142oty Potok",
    "lat": "50.70917200",
    "lon": "19.43226200"
  },
  {
    "id": "30",
    "name": "\u017bory",
    "lat": "50.02895840",
    "lon": "18.69072190"
  },
  {
    "id": "31",
    "name": "\u017bywiec - Kopernika",
    "lat": "49.67119770",
    "lon": "19.23448920"
  },
  {
    "id": "32",
    "name": "\u017bywiec - S\u0142owackiego",
    "lat": "49.67119770",
    "lon": "19.23448920"
  },
  {
    "id": "43",
    "name": "Dzia\u0142oszyn",
    "lat": "51.11785190",
    "lon": "18.87132240"
  },
  {
    "id": "44",
    "name": "Czerniawa",
    "lat": "50.91181500",
    "lon": "15.31679200"
  },
  {
    "id": "45",
    "name": "Nowa Ruda",
    "lat": "50.57357770",
    "lon": "16.51998960"
  },
  {
    "id": "46",
    "name": "Dzier\u017coni\u00f3w",
    "lat": "50.72935340",
    "lon": "16.64475180"
  },
  {
    "id": "47",
    "name": "Wa\u0142brzych",
    "lat": "50.78604290",
    "lon": "16.29177200"
  },
  {
    "id": "48",
    "name": "Zgorzelec",
    "lat": "51.15159270",
    "lon": "15.01778990"
  },
  {
    "id": "49",
    "name": "Wroc\u0142aw - Korzeniowskiego",
    "lat": "51.14121110",
    "lon": "17.05527920"
  },
  {
    "id": "50",
    "name": "Wroc\u0142aw - Wi\u015bniowa",
    "lat": "51.08385300",
    "lon": "17.02316800"
  },
  {
    "id": "51",
    "name": "Wroc\u0142aw - Bartnicza",
    "lat": "51.11587800",
    "lon": "17.12153700"
  },
  {
    "id": "52",
    "name": "Legnica",
    "lat": "51.20469130",
    "lon": "16.16033060"
  },
  {
    "id": "53",
    "name": "Z\u0105bkowice \u015al\u0105skie",
    "lat": "50.58735150",
    "lon": "16.82341950"
  },
  {
    "id": "54",
    "name": "O\u0142awa",
    "lat": "50.95670030",
    "lon": "17.29304140"
  },
  {
    "id": "55",
    "name": "K\u0142odzko",
    "lat": "50.43407170",
    "lon": "16.65070350"
  },
  {
    "id": "56",
    "name": "Osiecz\u00f3w",
    "lat": "51.29775640",
    "lon": "15.42000900"
  },
  {
    "id": "57",
    "name": "Jelenia G\u00f3ra",
    "lat": "50.91265050",
    "lon": "15.76052870"
  },
  {
    "id": "58",
    "name": "K\u0119dzierzyn-Ko\u017ale",
    "lat": "50.34534660",
    "lon": "18.24604810"
  },
  {
    "id": "59",
    "name": "Zdzieszowice",
    "lat": "50.43092550",
    "lon": "18.09190960"
  },
  {
    "id": "60",
    "name": "Opole",
    "lat": "50.65611150",
    "lon": "17.93068660"
  },
  {
    "id": "61",
    "name": "Olesno",
    "lat": "50.87610000",
    "lon": "18.41308500"
  }
]
